{
"type": "FeatureCollection",
"name": "station_points",
"crs": { "type": "name", "properties": { "name": "urn:ogc:def:crs:OGC:1.3:CRS84" } },
"features": [
{ "type": "Feature", "properties": { "name": "Ziarat", "place": "hamlet", "population": null, "osm_id": 772484612, "osm_type": "nodes" }, "geometry": { "type": "Point", "coordinates": [ 75.1377922, 36.4876086 ] } },
{ "type": "Feature", "properties": { "name": "Jun Kharchanai", "place": "village", "population": null, "osm_id": 769415719, "osm_type": "nodes" }, "geometry": { "type": "Point", "coordinates": [ 75.0349276, 36.8594554 ] } },
{ "type": "Feature", "properties": { "name": "Tirsat", "place": "village", "population": null, "osm_id": 4020926953, "osm_type": "nodes" }, "geometry": { "type": "Point", "coordinates": [ 73.4295583, 36.5460238 ] } },
{ "type": "Feature", "properties": { "name": "Chikar", "place": "village", "population": null, "osm_id": 4029337345, "osm_type": "nodes" }, "geometry": { "type": "Point", "coordinates": [ 73.3161937, 36.8127229 ] } },
{ "type": "Feature", "properties": { "name": "Oweer Lasht Bala", "place": "hamlet", "population": null, "osm_id": 4009196586, "osm_type": "nodes" }, "geometry": { "type": "Point", "coordinates": [ 71.680716, 36.296378 ] } },
{ "type": "Feature", "properties": { "name": "Yasin Proper", "place": "village", "population": null, "osm_id": 4013851494, "osm_type": "nodes" }, "geometry": { "type": "Point", "coordinates": [ 73.3364785, 36.3663191 ] } },
{ "type": "Feature", "properties": { "name": "Badswat", "place": "village", "population": null, "osm_id": 4012093708, "osm_type": "nodes" }, "geometry": { "type": "Point", "coordinates": [ 74.0458996, 36.5521463 ] } },
{ "type": "Feature", "properties": { "name": "Mori Lusht", "place": "village", "population": null, "osm_id": 3559319523, "osm_type": "nodes" }, "geometry": { "type": "Point", "coordinates": [ 71.9761615, 35.9874101 ] } },
{ "type": "Feature", "properties": { "name": "Arandu", "place": "village", "population": null, "osm_id": 9984541434, "osm_type": "nodes" }, "geometry": { "type": "Point", "coordinates": [ 75.3351286, 35.8662186 ] } },
{ "type": "Feature", "properties": { "name": "Serbel", "place": "village", "population": null, "osm_id": 3994650052, "osm_type": "nodes" }, "geometry": { "type": "Point", "coordinates": [ 72.8984229, 36.1541147 ] } },
{ "type": "Feature", "properties": { "name": "Hussinabad", "place": "village", "population": null, "osm_id": 752645245, "osm_type": "nodes" }, "geometry": { "type": "Point", "coordinates": [ 74.3898927, 36.2507285 ] } },
{ "type": "Feature", "properties": { "name": "Darkut", "place": "village", "population": null, "osm_id": 4023015414, "osm_type": "nodes" }, "geometry": { "type": "Point", "coordinates": [ 73.4353263, 36.645692 ] } },
{ "type": "Feature", "properties": { "name": "Rasht", "place": "village", "population": "600", "osm_id": 4035922802, "osm_type": "nodes" }, "geometry": { "type": "Point", "coordinates": [ 74.5145199, 36.8237328 ] } },
{ "type": "Feature", "properties": { "name": "Passu", "place": "village", "population": null, "osm_id": 271959710, "osm_type": "nodes" }, "geometry": { "type": "Point", "coordinates": [ 74.8943261, 36.4658158 ] } },
{ "type": "Feature", "properties": { "name": "Brep", "place": "village", "population": null, "osm_id": 4027955821, "osm_type": "nodes" }, "geometry": { "type": "Point", "coordinates": [ 72.6609412, 36.42763 ] } },
{ "type": "Feature", "properties": { "name": "Lasht", "place": "village", "population": null, "osm_id": 3986260097, "osm_type": "nodes" }, "geometry": { "type": "Point", "coordinates": [ 72.5746293, 36.6642737 ] } },
{ "type": "Feature", "properties": { "name": "Riri Owir", "place": "village", "population": null, "osm_id": 5433559833, "osm_type": "nodes" }, "geometry": { "type": "Point", "coordinates": [ 72.0152699, 36.1580462 ] } },
{ "type": "Feature", "properties": { "name": "Yarkhun Lusht", "place": "village", "population": null, "osm_id": 4029337368, "osm_type": "nodes" }, "geometry": { "type": "Point", "coordinates": [ 73.0248349, 36.7944166 ] } },
{ "type": "Feature", "properties": { "name": "Dhok", "place": "village", "population": null, "osm_id": 13064528610, "osm_type": "nodes" }, "geometry": { "type": "Point", "coordinates": [ 72.3576423, 36.4394549 ] } },
{ "type": "Feature", "properties": { "name": "Hasanabad", "place": "village", "population": null, "osm_id": 4025930371, "osm_type": "nodes" }, "geometry": { "type": "Point", "coordinates": [ 74.5988253, 36.2961309 ] } },
{ "type": "Feature", "properties": { "name": "Dewseer", "place": "village", "population": null, "osm_id": 4027955824, "osm_type": "nodes" }, "geometry": { "type": "Point", "coordinates": [ 72.8442529, 36.5759471 ] } },
{ "type": "Feature", "properties": { "name": "Asambar", "place": "village", "population": null, "osm_id": 4012068394, "osm_type": "nodes" }, "geometry": { "type": "Point", "coordinates": [ 73.8320133, 36.4171597 ] } },
{ "type": "Feature", "properties": { "name": "Ishkoman Payeen", "place": "village", "population": null, "osm_id": 4012085235, "osm_type": "nodes" }, "geometry": { "type": "Point", "coordinates": [ 73.8188963, 36.5316876 ] } },
{ "type": "Feature", "properties": { "name": "Shigar", "place": "town", "population": null, "osm_id": 431395409, "osm_type": "nodes" }, "geometry": { "type": "Point", "coordinates": [ 75.7371078, 35.4226164 ] } },
{ "type": "Feature", "properties": { "name": "Sosat Gipus", "place": "village", "population": null, "osm_id": 3994671602, "osm_type": "nodes" }, "geometry": { "type": "Point", "coordinates": [ 73.1345978, 36.1611968 ] } },
{ "type": "Feature", "properties": { "name": "Garam Chasma", "place": "town", "population": null, "osm_id": 4008934454, "osm_type": "nodes" }, "geometry": { "type": "Point", "coordinates": [ 71.5597728, 35.9935183 ] } },
{ "type": "Feature", "properties": { "name": "Mastuj", "place": "town", "population": null, "osm_id": 279777458, "osm_type": "nodes" }, "geometry": { "type": "Point", "coordinates": [ 72.5152762, 36.2769677 ] } },
{ "type": "Feature", "properties": { "name": "Buni", "place": "town", "population": null, "osm_id": 747012666, "osm_type": "nodes" }, "geometry": { "type": "Point", "coordinates": [ 72.2625054, 36.2700603 ] } }
]
}
